[
  {
    "title": "Paris",
    "description": "Ville de l'amour",
    "location": "Paris, France",
    "lat": 48.8566,
    "lng": 2.3522,
    "like": 1451,
    "date": "16/12/2004",
    "image": "https://images.unsplash.com/photo-1502602898657-3e91760cbb34",
    "comments": [["C'est où ?", "Timeo"], ["Magnifique", "Tommy"], ["Stylé", "Evan"]]
  },
  {
    "title": "Tokyo",
    "description": "Métropole futuriste",
    "location": "Tokyo, Japon",
    "lat": 35.6762,
    "lng": 139.6503,
    "like": 735,
    "date": "04/05/2004",
    "image": "https://images.unsplash.com/photo-1549693578-d683be217e58",
    "comments": [["Une vue de fou", "Nathan"], ["Magnifique", "Tommy"], ["Stylé", "Evan"]]
  },
  {
    "title": "New York",
    "description": "La ville qui ne dort jamais",
    "location": "New York, USA",
    "lat": 40.7128,
    "lng": -74.0060,
    "like": 981,
    "date": "17/12/2004",
    "image": "https://images.unsplash.com/photo-1496588152823-86ff7695e68f?q=80&w=1170&auto=format&fit=crop&ixlib=rb-4.1.0&ixid=M3wxMjA3fDB8MHxwaG90by1wYWdlfHx8fGVufDB8fHx8fA%3D%3D",
    "comments": [["Incroyable", "Girafon"], ["Magnifique", "Tommy"], ["Stylé", "Evan"], ["Une dinguerie la qualité d'image", "Ilyes"]]
  },
  {
    "title": "Bali",
    "description": "Île paradisiaque",
    "location": "Bali, Indonésie",
    "lat": -8.3405,
    "lng": 115.0920,
    "like": 164,
    "date": "24/01/2005",
    "image": "https://images.unsplash.com/photo-1500375592092-40eb2168fd21",
    "comments": [["Incroyable", "Girafon"], ["Magnifique", "Tommy"], ["Stylé", "Evan"], ["Une dinguerie la qualité d'image", "Ilyes"]]
  },
  {
    "title": "Rome",
    "description": "Histoire et architecture",
    "location": "Rome, Italie",
    "lat": 41.9028,
    "lng": 12.4964,
    "like": 826,
    "date": "24/02/2005",
    "image": "https://images.unsplash.com/photo-1552832230-c0197dd311b5?q=80&w=1096&auto=format&fit=crop&ixlib=rb-4.1.0&ixid=M3wxMjA3fDB8MHxwaG90by1wYWdlfHx8fGVufDB8fHx8fA%3D%3D",
    "comments": [["Incroyable", "Zebulon"], ["C'est où ?", "François"], ["C'est le feu", "Ilyes"]]
  },
  {
    "title": "Sydney",
    "description": "Opéra et plages",
    "location": "Sydney, Australie",
    "lat": -33.8688,
    "lng": 151.2093,
    "like": 3451,
    "date": "24/03/2005",
    "image": "https://images.unsplash.com/photo-1506973035872-a4ec16b8e8d9",
    "comments": [["Incroyable", "Girafon"], ["Magnifique", "Tommy"], ["Stylé", "Evan"], ["Une dinguerie la qualité d'image", "Ilyes"]]
  },
  {
    "title": "Londres",
    "description": "Ville historique",
    "location": "London, UK",
    "lat": 51.5074,
    "lng": -0.1278,
    "like": 1839,
    "date": "24/11/2015",
    "image": "https://images.unsplash.com/photo-1526129318478-62ed807ebdf9",
    "comments": [["Incroyable", "Girafon"], ["Pas mal", "Gabriel"], ["Faut que j'y aille", "Hakim"]]
  },
  {
    "title": "Dubaï",
    "description": "Modernité extrême",
    "location": "Dubai, UAE",
    "lat": 25.2048,
    "lng": 55.2708,
    "like": 293,
    "date": "09/03/2016",
    "image": "https://images.unsplash.com/photo-1512453979798-5ea266f8880c",
    "comments": [["Incroyable", "Zebulon"], ["C'est où ?", "François"], ["C'est le feu", "Ilyes"]]
  },
  {
    "title": "Santorini",
    "description": "Maisons blanches et mer bleue",
    "location": "Santorini, Grèce",
    "lat": 36.3932,
    "lng": 25.4615,
    "like": 345,
    "date": "10/09/2014",
    "image": "https://images.unsplash.com/photo-1613395877344-13d4a8e0d49e?q=80&w=735&auto=format&fit=crop&ixlib=rb-4.1.0&ixid=M3wxMjA3fDB8MHxwaG90by1wYWdlfHx8fGVufDB8fHx8fA%3D%3D",
    "comments": [["Incroyable", "Girafon"], ["Pas mal", "Gabriel"], ["Faut y aller", "Hakim"]]
  },
  {
    "title": "Reykjavik",
    "description": "Terre de feu et glace",
    "location": "Reykjavik, Islande",
    "lat": 64.1466,
    "lng": -21.9426,
    "like": 934,
    "date": "24/05/2012",
    "image": "https://images.unsplash.com/photo-1529963183134-61a90db47eaf?q=80&w=1170&auto=format&fit=crop&ixlib=rb-4.1.0&ixid=M3wxMjA3fDB8MHxwaG90by1wYWdlfHx8fGVufDB8fHx8fA%3D%3D",
    "comments": [["Incroyable", "Girafon"], ["Magnifique", "Tommy"], ["Stylé", "Evan"], ["Une dinguerie la qualité d'image", "Ilyes"]]
  },
  {
    "title": "Marrakech",
    "description": "Couleurs et souks",
    "location": "Marrakech, Maroc",
    "lat": 31.6295,
    "lng": -7.9811,
    "like": 376,
    "date": "27/06/2018",
    "image": "https://images.unsplash.com/photo-1548013146-72479768bada",
    "comments": [["Incroyable", "Zebulon"], ["C'est où ?", "François"], ["C'est le feu", "Ilyes"]]
  },
  {
    "title": "Rio de Janeiro",
    "description": "Christ Rédempteur",
    "location": "Rio, Brésil",
    "lat": -22.9068,
    "lng": -43.1729,
    "like": 2163,
    "date": "12/03/2014",
    "image": "https://images.unsplash.com/photo-1483729558449-99ef09a8c325",
    "comments": [["Incroyable", "Girafon"], ["Pas mal", "Gabriel"], ["Faut y aller", "Hakim"]]
  },
  {
    "title": "Bangkok",
    "description": "Temples et street food",
    "location": "Bangkok, Thaïlande",
    "lat": 13.7563,
    "lng": 100.5018,
    "like": 125,
    "date": "24/03/2005",
    "image": "https://images.unsplash.com/photo-1508009603885-50cf7c579365",
    "comments": [["Incroyable", "Girafon"], ["Magnifique", "Tommy"], ["Stylé", "Evan"], ["Une dinguerie la qualité d'image", "Ilyes"]]
  },
  {
    "title": "Los Angeles",
    "description": "Hollywood et plages",
    "location": "Los Angeles, USA",
    "lat": 34.0522,
    "lng": -118.2437,
    "like": 563,
    "date": "31/03/2005",
    "image": "https://images.unsplash.com/photo-1500916434205-0c77489c6cf7",
    "comments": [["Incroyable", "Zebulon"], ["C'est où ?", "François"]]
  },
  {
    "title": "Cape Town",
    "description": "Table Mountain",
    "location": "Cape Town, Afrique du Sud",
    "lat": -33.9249,
    "lng": 18.4241,
    "like": 239,
    "date": "26/09/2005",
    "image": "https://images.unsplash.com/photo-1516307365426-bea591f05011",
    "comments": [["Incroyable", "Girafon"], ["Pas mal", "Gabriel"], ["Faut y aller", "Hakim"]]
  }
]